[{
  "_id": {
    "$oid": "65cb4e4f638071de28651ff2"
  },
  "city": "Delhi",
  "lat": "28.6100",
  "lng": "77.2300",
  "country": "India",
  "iso2": "IN",
  "state": "Delhi"
},
{
  "_id": {
    "$oid": "65cb4e4f638071de28651ff3"
  },
  "city": "Mumbai",
  "lat": "19.0761",
  "lng": "72.8775",
  "country": "India",
  "iso2": "IN",
  "state": "Maharashtra"
},
{
  "_id": {
    "$oid": "65cb4e4f638071de28651ff4"
  },
  "city": "Kolkata",
  "lat": "22.5675",
  "lng": "88.3700",
  "country": "India",
  "iso2": "IN",
  "state": "West Bengal"
},
{
  "_id": {
    "$oid": "65cb4e4f638071de28651ff5"
  },
  "city": "Bangalore",
  "lat": "12.9789",
  "lng": "77.5917",
  "country": "India",
  "iso2": "IN",
  "state": "Karnataka"
},
{
  "_id": {
    "$oid": "65cb4e4f638071de28651ff6"
  },
  "city": "Chennai",
  "lat": "13.0825",
  "lng": "80.2750",
  "country": "India",
  "iso2": "IN",
  "state": "Tamil Nadu"
},
{
  "_id": {
    "$oid": "65cb4e4f638071de28651ff7"
  },
  "city": "Hyderabad",
  "lat": "17.3850",
  "lng": "78.4867",
  "country": "India",
  "iso2": "IN",
  "state": "Telangana"
},
{
  "_id": {
    "$oid": "65cb4e4f638071de28651ff8"
  },
  "city": "Pune",
  "lat": "18.5203",
  "lng": "73.8567",
  "country": "India",
  "iso2": "IN",
  "state": "Maharashtra"
},
{
  "_id": {
    "$oid": "65cb4e4f638071de28651ff9"
  },
  "city": "Ahmedabad",
  "lat": "23.0300",
  "lng": "72.5800",
  "country": "India",
  "iso2": "IN",
  "state": "Gujarat"
},
{
  "_id": {
    "$oid": "65cb4e4f638071de28651ffa"
  },
  "city": "Surat",
  "lat": "21.1702",
  "lng": "72.8311",
  "country": "India",
  "iso2": "IN",
  "state": "Gujarat"
},
{
  "_id": {
    "$oid": "65cb4e4f638071de28651ffb"
  },
  "city": "Prayagraj",
  "lat": "25.4358",
  "lng": "81.8464",
  "country": "India",
  "iso2": "IN",
  "state": "Uttar Pradesh"
},
{
  "_id": {
    "$oid": "65cb4e4f638071de28651ffc"
  },
  "city": "Lucknow",
  "lat": "26.8500",
  "lng": "80.9500",
  "country": "India",
  "iso2": "IN",
  "state": "Uttar Pradesh"
},
{
  "_id": {
    "$oid": "65cb4e4f638071de28651ffd"
  },
  "city": "Jaipur",
  "lat": "26.9000",
  "lng": "75.8000",
  "country": "India",
  "iso2": "IN",
  "state": "Rajasthan"
},
{
  "_id": {
    "$oid": "65cb4e4f638071de28651ffe"
  },
  "city": "Cawnpore",
  "lat": "26.4499",
  "lng": "80.3319",
  "country": "India",
  "iso2": "IN",
  "state": "Uttar Pradesh"
},
{
  "_id": {
    "$oid": "65cb4e4f638071de28651fff"
  },
  "city": "Mirzapur",
  "lat": "25.1460",
  "lng": "82.5690",
  "country": "India",
  "iso2": "IN",
  "state": "Uttar Pradesh"
},
{
  "_id": {
    "$oid": "65cb4e4f638071de28652000"
  },
  "city": "Nagpur",
  "lat": "21.1497",
  "lng": "79.0806",
  "country": "India",
  "iso2": "IN",
  "state": "Maharashtra"
},
{
  "_id": {
    "$oid": "65cb4e4f638071de28652001"
  },
  "city": "Ghaziabad",
  "lat": "28.6700",
  "lng": "77.4200",
  "country": "India",
  "iso2": "IN",
  "state": "Uttar Pradesh"
},
{
  "_id": {
    "$oid": "65cb4e4f638071de28652002"
  },
  "city": "Vadodara",
  "lat": "22.3000",
  "lng": "73.2000",
  "country": "India",
  "iso2": "IN",
  "state": "Gujarat"
},
{
  "_id": {
    "$oid": "65cb4e4f638071de28652003"
  },
  "city": "Vishakhapatnam",
  "lat": "17.7042",
  "lng": "83.2978",
  "country": "India",
  "iso2": "IN",
  "state": "Andhra Pradesh"
},
{
  "_id": {
    "$oid": "65cb4e4f638071de28652004"
  },
  "city": "Indore",
  "lat": "22.7167",
  "lng": "75.8472",
  "country": "India",
  "iso2": "IN",
  "state": "Madhya Pradesh"
},
{
  "_id": {
    "$oid": "65cb4e4f638071de28652005"
  },
  "city": "Thane",
  "lat": "19.1972",
  "lng": "72.9722",
  "country": "India",
  "iso2": "IN",
  "state": "Maharashtra"
},
{
  "_id": {
    "$oid": "65cb4e4f638071de28652006"
  },
  "city": "Bhopal",
  "lat": "23.2500",
  "lng": "77.4167",
  "country": "India",
  "iso2": "IN",
  "state": "Madhya Pradesh"
},
{
  "_id": {
    "$oid": "65cb4e4f638071de28652007"
  },
  "city": "Chinchvad",
  "lat": "18.6186",
  "lng": "73.8037",
  "country": "India",
  "iso2": "IN",
  "state": "Maharashtra"
},
{
  "_id": {
    "$oid": "65cb4e4f638071de28652008"
  },
  "city": "Patna",
  "lat": "25.6000",
  "lng": "85.1000",
  "country": "India",
  "iso2": "IN",
  "state": "Bihar"
},
{
  "_id": {
    "$oid": "65cb4e4f638071de28652009"
  },
  "city": "Bilaspur",
  "lat": "22.0900",
  "lng": "82.1500",
  "country": "India",
  "iso2": "IN",
  "state": "Chhattisgarh"
},
{
  "_id": {
    "$oid": "65cb4e4f638071de2865200a"
  },
  "city": "Ludhiana",
  "lat": "30.9100",
  "lng": "75.8500",
  "country": "India",
  "iso2": "IN",
  "state": "Punjab"
},
{
  "_id": {
    "$oid": "65cb4e4f638071de2865200b"
  },
  "city": "Agwar",
  "lat": "27.1800",
  "lng": "78.0200",
  "country": "India",
  "iso2": "IN",
  "state": "Uttar Pradesh"
},
{
  "_id": {
    "$oid": "65cb4e4f638071de2865200c"
  },
  "city": "agra",
  "lat": "27.1800",
  "lng": "78.0200",
  "country": "India"
},
{
  "_id": {
    "$oid": "65cb4e4f638071de2865200d"
  },
  "city": "Madurai",
  "lat": "9.9252",
  "lng": "78.1198",
  "country": "India",
  "iso2": "IN",
  "state": "Tamil Nadu"
},
{
  "_id": {
    "$oid": "65cb4e4f638071de2865200e"
  },
  "city": "Jamshedpur",
  "lat": "22.7925",
  "lng": "86.1842",
  "country": "India",
  "iso2": "IN",
  "state": "Jharkhand"
},
{
  "_id": {
    "$oid": "65cb4e4f638071de2865200f"
  },
  "city": "Nasik",
  "lat": "20.0000",
  "lng": "73.7800",
  "country": "India",
  "iso2": "IN",
  "state": "Maharashtra"
},
{
  "_id": {
    "$oid": "65cb4e4f638071de28652010"
  },
  "city": "Faridabad",
  "lat": "28.4167",
  "lng": "77.3000",
  "country": "India",
  "iso2": "IN",
  "state": "Haryana"
},
{
  "_id": {
    "$oid": "65cb4e4f638071de28652011"
  },
  "city": "Aurangabad",
  "lat": "19.8800",
  "lng": "75.3200",
  "country": "India",
  "iso2": "IN",
  "state": "Maharashtra"
},
{
  "_id": {
    "$oid": "65cb4e4f638071de28652012"
  },
  "city": "Rajkot",
  "lat": "22.3000",
  "lng": "70.7833",
  "country": "India",
  "iso2": "IN",
  "state": "Gujarat"
},
{
  "_id": {
    "$oid": "65cb4e4f638071de28652013"
  },
  "city": "Meerut",
  "lat": "28.9800",
  "lng": "77.7100",
  "country": "India",
  "iso2": "IN",
  "state": "Uttar Pradesh"
},
{
  "_id": {
    "$oid": "65cb4e4f638071de28652014"
  },
  "city": "Jabalpur",
  "lat": "23.1667",
  "lng": "79.9333",
  "country": "India",
  "iso2": "IN",
  "state": "Madhya Pradesh"
},
{
  "_id": {
    "$oid": "65cb4e4f638071de28652015"
  },
  "city": "Kalamboli",
  "lat": "19.2333",
  "lng": "73.1333",
  "country": "India",
  "iso2": "IN",
  "state": "Maharashtra"
},
{
  "_id": {
    "$oid": "65cb4e4f638071de28652016"
  },
  "city": "Vasai",
  "lat": "19.4700",
  "lng": "72.8000",
  "country": "India",
  "iso2": "IN",
  "state": "Maharashtra"
},
{
  "_id": {
    "$oid": "65cb4e4f638071de28652017"
  },
  "city": "Najafgarh",
  "lat": "28.6092",
  "lng": "76.9798",
  "country": "India",
  "iso2": "IN",
  "state": "Delhi"
},
{
  "_id": {
    "$oid": "65cb4e4f638071de28652018"
  },
  "city": "Varanasi",
  "lat": "25.3189",
  "lng": "83.0128",
  "country": "India",
  "iso2": "IN",
  "state": "Uttar Pradesh"
},
{
  "_id": {
    "$oid": "65cb4e4f638071de28652019"
  },
  "city": "Srinagar",
  "lat": "34.0900",
  "lng": "74.7900",
  "country": "India",
  "iso2": "IN",
  "state": "Jammu and Kashmir"
},
{
  "_id": {
    "$oid": "65cb4e4f638071de2865201a"
  },
  "city": "Dhanbad",
  "lat": "23.7998",
  "lng": "86.4305",
  "country": "India",
  "iso2": "IN",
  "state": "Jharkhand"
},
{
  "_id": {
    "$oid": "65cb4e4f638071de2865201b"
  },
  "city": "Amritsar",
  "lat": "31.6400",
  "lng": "74.8600",
  "country": "India",
  "iso2": "IN",
  "state": "Punjab"
},
{
  "_id": {
    "$oid": "65cb4e4f638071de2865201c"
  },
  "city": "Aligarh",
  "lat": "27.8800",
  "lng": "78.0800",
  "country": "India",
  "iso2": "IN",
  "state": "Uttar Pradesh"
},
{
  "_id": {
    "$oid": "65cb4e4f638071de2865201d"
  },
  "city": "Guwahati",
  "lat": "26.1722",
  "lng": "91.7458",
  "country": "India",
  "iso2": "IN",
  "state": "Assam"
},
{
  "_id": {
    "$oid": "65cb4e4f638071de2865201e"
  },
  "city": "Haora",
  "lat": "22.5800",
  "lng": "88.3294",
  "country": "India",
  "iso2": "IN",
  "state": "West Bengal"
},
{
  "_id": {
    "$oid": "65cb4e4f638071de2865201f"
  },
  "city": "Ranchi",
  "lat": "23.3600",
  "lng": "85.3300",
  "country": "India",
  "iso2": "IN",
  "state": "Jharkhand"
},
{
  "_id": {
    "$oid": "65cb4e4f638071de28652020"
  },
  "city": "Gwalior",
  "lat": "26.2215",
  "lng": "78.1780",
  "country": "India",
  "iso2": "IN",
  "state": "Madhya Pradesh"
},
{
  "_id": {
    "$oid": "65cb4e4f638071de28652021"
  },
  "city": "Chandigarh",
  "lat": "30.7500",
  "lng": "76.7800",
  "country": "India",
  "iso2": "IN",
  "state": "Chandigarh"
},
{
  "_id": {
    "$oid": "65cb4e4f638071de28652022"
  },
  "city": "Vijayavada",
  "lat": "16.5193",
  "lng": "80.6305",
  "country": "India",
  "iso2": "IN",
  "state": "Andhra Pradesh"
},
{
  "_id": {
    "$oid": "65cb4e4f638071de28652023"
  },
  "city": "Jodhpur",
  "lat": "26.2800",
  "lng": "73.0200",
  "country": "India",
  "iso2": "IN",
  "state": "Rajasthan"
},
{
  "_id": {
    "$oid": "65cb4e4f638071de28652024"
  },
  "city": "Raipur",
  "lat": "21.2500",
  "lng": "81.6300",
  "country": "India",
  "iso2": "IN",
  "state": "Chhattisgarh"
},
{
  "_id": {
    "$oid": "65cb4e4f638071de28652025"
  },
  "city": "Kota",
  "lat": "25.1800",
  "lng": "75.8300",
  "country": "India",
  "iso2": "IN",
  "state": "Rajasthan"
},
{
  "_id": {
    "$oid": "65cb4e4f638071de28652026"
  },
  "city": "Kalkaji Devi",
  "lat": "28.5485",
  "lng": "77.2513",
  "country": "India",
  "iso2": "IN",
  "state": "Delhi"
},
{
  "_id": {
    "$oid": "65cb4e4f638071de28652027"
  },
  "city": "Bhayandar",
  "lat": "19.2900",
  "lng": "72.8500",
  "country": "India",
  "iso2": "IN",
  "state": "Maharashtra"
},
{
  "_id": {
    "$oid": "65cb4e4f638071de28652028"
  },
  "city": "Ambattur",
  "lat": "13.1143",
  "lng": "80.1548",
  "country": "India",
  "iso2": "IN",
  "state": "Tamil Nadu"
},
{
  "_id": {
    "$oid": "65cb4e4f638071de28652029"
  },
  "city": "Salt Lake City",
  "lat": "22.6100",
  "lng": "88.4000",
  "country": "India",
  "iso2": "IN",
  "state": "West Bengal"
},
{
  "_id": {
    "$oid": "65cb4e4f638071de2865202a"
  },
  "city": "Bhatpara",
  "lat": "22.8700",
  "lng": "88.4100",
  "country": "India",
  "iso2": "IN",
  "state": "West Bengal"
},
{
  "_id": {
    "$oid": "65cb4e4f638071de2865202b"
  },
  "city": "Kukatpalli",
  "lat": "17.4849",
  "lng": "78.4138",
  "country": "India",
  "iso2": "IN",
  "state": "Andhra Pradesh"
},
{
  "_id": {
    "$oid": "65cb4e4f638071de2865202c"
  },
  "city": "Darbhanga",
  "lat": "26.1700",
  "lng": "85.9000",
  "country": "India",
  "iso2": "IN",
  "state": "Bihar"
},
{
  "_id": {
    "$oid": "65cb4e4f638071de2865202d"
  },
  "city": "Dasarhalli",
  "lat": "13.0465",
  "lng": "77.5130",
  "country": "India",
  "iso2": "IN",
  "state": "Karnataka"
},
{
  "_id": {
    "$oid": "65cb4e4f638071de2865202e"
  },
  "city": "Muzaffarpur",
  "lat": "26.1225",
  "lng": "85.3906",
  "country": "India",
  "iso2": "IN",
  "state": "Bihar"
},
{
  "_id": {
    "$oid": "65cb4e4f638071de2865202f"
  },
  "city": "Oulgaret",
  "lat": "11.9570",
  "lng": "79.7737",
  "country": "India",
  "iso2": "IN",
  "state": "Puducherry"
},
{
  "_id": {
    "$oid": "65cb4e4f638071de28652030"
  },
  "city": "New Delhi",
  "lat": "28.6139",
  "lng": "77.2090",
  "country": "India",
  "iso2": "IN",
  "state": "Delhi"
},
{
  "_id": {
    "$oid": "65cb4e4f638071de28652031"
  },
  "city": "Tiruvottiyur",
  "lat": "13.1600",
  "lng": "80.3000",
  "country": "India",
  "iso2": "IN",
  "state": "Tamil Nadu"
},
{
  "_id": {
    "$oid": "65cb4e4f638071de28652032"
  },
  "city": "Puducherry",
  "lat": "11.9167",
  "lng": "79.8167",
  "country": "India",
  "iso2": "IN",
  "state": "Puducherry"
},
{
  "_id": {
    "$oid": "65cb4e4f638071de28652033"
  },
  "city": "Byatarayanpur",
  "lat": "13.0659",
  "lng": "77.5922",
  "country": "India",
  "iso2": "IN",
  "state": "Karnataka"
},
{
  "_id": {
    "$oid": "65cb4e4f638071de28652034"
  },
  "city": "Pallavaram",
  "lat": "12.9675",
  "lng": "80.1491",
  "country": "India",
  "iso2": "IN",
  "state": "Tamil Nadu"
},
{
  "_id": {
    "$oid": "65cb4e4f638071de28652035"
  },
  "city": "Secunderabad",
  "lat": "17.4399",
  "lng": "78.4983",
  "country": "India",
  "iso2": "IN",
  "state": "Andhra Pradesh"
},
{
  "_id": {
    "$oid": "65cb4e4f638071de28652036"
  },
  "city": "Shimla",
  "lat": "31.1033",
  "lng": "77.1722",
  "country": "India",
  "iso2": "IN",
  "state": "Himachal Pradesh"
},
{
  "_id": {
    "$oid": "65cb4e4f638071de28652037"
  },
  "city": "Puri",
  "lat": "19.8106",
  "lng": "85.8314",
  "country": "India",
  "iso2": "IN",
  "state": "Odisha"
},
{
  "_id": {
    "$oid": "65cb4e4f638071de28652038"
  },
  "city": "Shrirampur",
  "lat": "22.7500",
  "lng": "88.3400",
  "country": "India",
  "iso2": "IN",
  "state": "West Bengal"
},
{
  "_id": {
    "$oid": "65cb4e4f638071de28652039"
  },
  "city": "Hugli",
  "lat": "22.9089",
  "lng": "88.3967",
  "country": "India",
  "iso2": "IN",
  "state": "West Bengal"
},
{
  "_id": {
    "$oid": "65cb4e4f638071de2865203a"
  },
  "city": "Chandannagar",
  "lat": "22.8671",
  "lng": "88.3674",
  "country": "India",
  "iso2": "IN",
  "state": "West Bengal"
},
{
  "_id": {
    "$oid": "65cb4e4f638071de2865203b"
  },
  "city": "Sultanpur Mazra",
  "lat": "28.6981",
  "lng": "77.0689",
  "country": "India",
  "iso2": "IN",
  "state": "Delhi"
},
{
  "_id": {
    "$oid": "65cb4e4f638071de2865203c"
  },
  "city": "Krishnanagar",
  "lat": "23.4000",
  "lng": "88.5000",
  "country": "India",
  "iso2": "IN",
  "state": "West Bengal"
},
{
  "_id": {
    "$oid": "65cb4e4f638071de2865203d"
  },
  "city": "Barakpur",
  "lat": "22.7642",
  "lng": "88.3776",
  "country": "India",
  "iso2": "IN",
  "state": "West Bengal"
},
{
  "_id": {
    "$oid": "65cb4e4f638071de2865203e"
  },
  "city": "Bhalswa Jahangirpur",
  "lat": "28.7354",
  "lng": "77.1638",
  "country": "India",
  "iso2": "IN",
  "state": "Delhi"
},
{
  "_id": {
    "$oid": "65cb4e4f638071de2865203f"
  },
  "city": "Nangloi Jat",
  "lat": "28.6833",
  "lng": "77.0667",
  "country": "India",
  "iso2": "IN",
  "state": "Delhi"
},
{
  "_id": {
    "$oid": "65cb4e4f638071de28652040"
  },
  "city": "Yelahanka",
  "lat": "13.1007",
  "lng": "77.5963",
  "country": "India",
  "iso2": "IN",
  "state": "Karnataka"
},
{
  "_id": {
    "$oid": "65cb4e4f638071de28652041"
  },
  "city": "Titagarh",
  "lat": "22.7400",
  "lng": "88.3700",
  "country": "India",
  "iso2": "IN",
  "state": "West Bengal"
},
{
  "_id": {
    "$oid": "65cb4e4f638071de28652042"
  },
  "city": "Dam Dam",
  "lat": "22.6200",
  "lng": "88.4200",
  "country": "India",
  "iso2": "IN",
  "state": "West Bengal"
},
{
  "_id": {
    "$oid": "65cb4e4f638071de28652043"
  },
  "city": "Bansbaria",
  "lat": "22.9700",
  "lng": "88.4000",
  "country": "India",
  "iso2": "IN",
  "state": "West Bengal"
},
{
  "_id": {
    "$oid": "65cb4e4f638071de28652044"
  },
  "city": "Madhavaram",
  "lat": "13.1482",
  "lng": "80.2314",
  "country": "India",
  "iso2": "IN",
  "state": "Tamil Nadu"
},
{
  "_id": {
    "$oid": "65cb4e4f638071de28652045"
  },
  "city": "Baj Baj",
  "lat": "22.4828",
  "lng": "88.1818",
  "country": "India",
  "iso2": "IN",
  "state": "West Bengal"
},
{
  "_id": {
    "$oid": "65cb4e4f638071de28652046"
  },
  "city": "Nerkunram",
  "lat": "13.0667",
  "lng": "80.2833",
  "country": "India",
  "iso2": "IN",
  "state": "Tamil Nadu"
},
{
  "_id": {
    "$oid": "65cb4e4f638071de28652047"
  },
  "city": "Kendraparha",
  "lat": "20.5000",
  "lng": "86.4200",
  "country": "India",
  "iso2": "IN",
  "state": "Odisha"
},
{
  "_id": {
    "$oid": "65cb4e4f638071de28652048"
  },
  "city": "Sijua",
  "lat": "23.7692",
  "lng": "86.1673",
  "country": "India",
  "iso2": "IN",
  "state": "Jharkhand"
},
{
  "_id": {
    "$oid": "65cb4e4f638071de28652049"
  },
  "city": "Manali",
  "lat": "13.1667",
  "lng": "80.2667",
  "country": "India",
  "iso2": "IN",
  "state": "Tamil Nadu"
},
{
  "_id": {
    "$oid": "65cb4e4f638071de2865204a"
  },
  "city": "Chakapara",
  "lat": "22.6300",
  "lng": "88.3500",
  "country": "India",
  "iso2": "IN",
  "state": "West Bengal"
},
{
  "_id": {
    "$oid": "65cb4e4f638071de2865204b"
  },
  "city": "Pappakurichchi",
  "lat": "10.8137",
  "lng": "78.7481",
  "country": "India",
  "iso2": "IN",
  "state": "Tamil Nadu"
},
{
  "_id": {
    "$oid": "65cb4e4f638071de2865204c"
  },
  "city": "Herohalli",
  "lat": "12.9911",
  "lng": "77.4873",
  "country": "India",
  "iso2": "IN",
  "state": "Karnataka"
},
{
  "_id": {
    "$oid": "65cb4e4f638071de2865204d"
  },
  "city": "Madipakkam",
  "lat": "12.9623",
  "lng": "80.1986",
  "country": "India",
  "iso2": "IN",
  "state": "Tamil Nadu"
},
{
  "_id": {
    "$oid": "65cb4e4f638071de2865204e"
  },
  "city": "Sabalpur",
  "lat": "25.6053",
  "lng": "85.1835",
  "country": "India",
  "iso2": "IN",
  "state": "Bihar"
},
{
  "_id": {
    "$oid": "65cb4e4f638071de2865204f"
  },
  "city": "Salua",
  "lat": "22.6100",
  "lng": "88.2700",
  "country": "India",
  "iso2": "IN",
  "state": "West Bengal"
},
{
  "_id": {
    "$oid": "65cb4e4f638071de28652050"
  },
  "city": "Balasore",
  "lat": "21.4942",
  "lng": "86.9317",
  "country": "India",
  "iso2": "IN",
  "state": "Odisha"
},
{
  "_id": {
    "$oid": "65cb4e4f638071de28652051"
  },
  "city": "Jalhalli",
  "lat": "13.0333",
  "lng": "77.5500",
  "country": "India",
  "iso2": "IN",
  "state": "Karnataka"
},
{
  "_id": {
    "$oid": "65cb4e4f638071de28652052"
  },
  "city": "Chinnasekkadu",
  "lat": "13.1609",
  "lng": "80.2573",
  "country": "India",
  "iso2": "IN",
  "state": "Tamil Nadu"
},
{
  "_id": {
    "$oid": "65cb4e4f638071de28652053"
  },
  "city": "Jethuli",
  "lat": "25.5378",
  "lng": "85.2841",
  "country": "India",
  "iso2": "IN",
  "state": "Bihar"
},
{
  "_id": {
    "$oid": "65cb4e4f638071de28652054"
  },
  "city": "Nagtala",
  "lat": "22.3693",
  "lng": "88.6071",
  "country": "India",
  "iso2": "IN",
  "state": "West Bengal"
},
{
  "_id": {
    "$oid": "65cb4e4f638071de28652055"
  },
  "city": "Bagalur",
  "lat": "13.1328",
  "lng": "77.6685",
  "country": "India",
  "iso2": "IN",
  "state": "Karnataka"
},
{
  "_id": {
    "$oid": "65cb4e4f638071de28652056"
  },
  "city": "Pakri",
  "lat": "25.5876",
  "lng": "85.1580",
  "country": "India",
  "iso2": "IN",
  "state": "Bihar"
},
{
  "_id": {
    "$oid": "65cb4e4f638071de28652057"
  },
  "city": "Hunasamaranhalli",
  "lat": "13.1435",
  "lng": "77.6200",
  "country": "India",
  "iso2": "IN",
  "state": "Karnataka"
},
{
  "_id": {
    "$oid": "65cb4e4f638071de28652058"
  },
  "city": "Hesarghatta",
  "lat": "13.1391",
  "lng": "77.4783",
  "country": "India",
  "iso2": "IN",
  "state": "Karnataka"
},
{
  "_id": {
    "$oid": "65cb4e4f638071de28652059"
  },
  "city": "Bommayapalaiyam",
  "lat": "11.9922",
  "lng": "79.8499",
  "country": "India",
  "iso2": "IN",
  "state": "Tamil Nadu"
},
{
  "_id": {
    "$oid": "65cb4e4f638071de2865205a"
  },
  "city": "Gundur",
  "lat": "10.7339",
  "lng": "78.7184",
  "country": "India",
  "iso2": "IN",
  "state": "Tamil Nadu"
},
{
  "_id": {
    "$oid": "65cb4e4f638071de2865205b"
  },
  "city": "Punadih",
  "lat": "25.5484",
  "lng": "85.2649",
  "country": "India",
  "iso2": "IN",
  "state": "Bihar"
},
{
  "_id": {
    "$oid": "65cb4e4f638071de2865205c"
  },
  "city": "Hariladih",
  "lat": "23.6300",
  "lng": "86.3500",
  "country": "India",
  "iso2": "IN",
  "state": "Jharkhand"
},
{
  "_id": {
    "$oid": "65cb4e4f638071de2865205d"
  },
  "city": "Alawalpur",
  "lat": "25.4958",
  "lng": "85.2021",
  "country": "India",
  "iso2": "IN",
  "state": "Bihar"
},
{
  "_id": {
    "$oid": "65cb4e4f638071de2865205e"
  },
  "city": "Madnaikanhalli",
  "lat": "13.0626",
  "lng": "77.4642",
  "country": "India",
  "iso2": "IN",
  "state": "Karnataka"
},
{
  "_id": {
    "$oid": "65cb4e4f638071de2865205f"
  },
  "city": "Kadiganahalli",
  "lat": "13.1687",
  "lng": "77.6283",
  "country": "India",
  "iso2": "IN",
  "state": "Karnataka"
},
{
  "_id": {
    "$oid": "65cb4e4f638071de28652060"
  },
  "city": "Mahuli",
  "lat": "25.5430",
  "lng": "85.2268",
  "country": "India",
  "iso2": "IN",
  "state": "Bihar"
},
{
  "_id": {
    "$oid": "65cb4e4f638071de28652061"
  },
  "city": "Zeyadah Kot",
  "lat": "22.3210",
  "lng": "88.2457",
  "country": "India",
  "iso2": "IN",
  "state": "West Bengal"
},
{
  "_id": {
    "$oid": "65cb4e4f638071de28652062"
  },
  "city": "Arshakunti",
  "lat": "13.0785",
  "lng": "77.4225",
  "country": "India",
  "iso2": "IN",
  "state": "Karnataka"
},
{
  "_id": {
    "$oid": "65cb4e4f638071de28652063"
  },
  "city": "Hirapur",
  "lat": "23.6834",
  "lng": "87.1973",
  "country": "India",
  "iso2": "IN",
  "state": "West Bengal"
},
{
  "_id": {
    "$oid": "65cb4e4f638071de28652064"
  },
  "city": "Mirchi",
  "lat": "25.5554",
  "lng": "85.2139",
  "country": "India",
  "iso2": "IN",
  "state": "Bihar"
},
{
  "_id": {
    "$oid": "65cb4e4f638071de28652065"
  },
  "city": "Sonudih",
  "lat": "25.1155",
  "lng": "87.0214",
  "country": "India",
  "iso2": "IN",
  "state": "Bihar"
},
{
  "_id": {
    "$oid": "65cb4e4f638071de28652066"
  },
  "city": "Sondekoppa",
  "lat": "13.0000",
  "lng": "77.3667",
  "country": "India",
  "iso2": "IN",
  "state": "Karnataka"
},
{
  "_id": {
    "$oid": "65cb4e4f638071de28652067"
  },
  "city": "Babura",
  "lat": "25.0851",
  "lng": "87.1092",
  "country": "India",
  "iso2": "IN",
  "state": "Bihar"
},
{
  "_id": {
    "$oid": "65cb4e4f638071de28652068"
  },
  "city": "Madavar",
  "lat": "13.0525",
  "lng": "77.4732",
  "country": "India",
  "iso2": "IN",
  "state": "Karnataka"
},
{
  "_id": {
    "$oid": "65cb4e4f638071de28652069"
  },
  "city": "Kadabgeri",
  "lat": "12.9965",
  "lng": "77.4331",
  "country": "India",
  "iso2": "IN",
  "state": "Karnataka"
},
{
  "_id": {
    "$oid": "65cb4e4f638071de2865206a"
  },
  "city": "Nanmangalam",
  "lat": "12.9381",
  "lng": "80.1753",
  "country": "India",
  "iso2": "IN",
  "state": "Tamil Nadu"
},
{
  "_id": {
    "$oid": "65cb4e4f638071de2865206b"
  },
  "city": "Taliganja",
  "lat": "22.5876",
  "lng": "88.4439",
  "country": "India",
  "iso2": "IN",
  "state": "West Bengal"
},
{
  "_id": {
    "$oid": "65cb4e4f638071de2865206c"
  },
  "city": "Tarchha",
  "lat": "25.1116",
  "lng": "87.0964",
  "country": "India",
  "iso2": "IN",
  "state": "Bihar"
},
{
  "_id": {
    "$oid": "65cb4e4f638071de2865206d"
  },
  "city": "Belgharia",
  "lat": "22.5692",
  "lng": "88.4846",
  "country": "India",
  "iso2": "IN",
  "state": "West Bengal"
},
{
  "_id": {
    "$oid": "65cb4e4f638071de2865206e"
  },
  "city": "Kammanhalli",
  "lat": "13.0155",
  "lng": "77.6381",
  "country": "India",
  "iso2": "IN",
  "state": "Karnataka"
},
{
  "_id": {
    "$oid": "65cb4e4f638071de2865206f"
  },
  "city": "Sonnappanhalli",
  "lat": "13.1557",
  "lng": "77.6179",
  "country": "India",
  "iso2": "IN",
  "state": "Karnataka"
},
{
  "_id": {
    "$oid": "65cb4e4f638071de28652070"
  },
  "city": "Kedihati",
  "lat": "22.6543",
  "lng": "88.5304",
  "country": "India",
  "iso2": "IN",
  "state": "West Bengal"
},
{
  "_id": {
    "$oid": "65cb4e4f638071de28652071"
  },
  "city": "Doddajivanhalli",
  "lat": "13.0086",
  "lng": "77.6143",
  "country": "India",
  "iso2": "IN",
  "state": "Karnataka"
},
{
  "_id": {
    "$oid": "65cb4e4f638071de28652072"
  },
  "city": "Simli Murarpur",
  "lat": "25.5792",
  "lng": "85.2401",
  "country": "India",
  "iso2": "IN",
  "state": "Bihar"
},
{
  "_id": {
    "$oid": "65cb4e4f638071de28652073"
  },
  "city": "Sonawan",
  "lat": "25.5445",
  "lng": "85.2387",
  "country": "India",
  "iso2": "IN",
  "state": "Bihar"
},
{
  "_id": {
    "$oid": "65cb4e4f638071de28652074"
  },
  "city": "Devanandapur",
  "lat": "22.9378",
  "lng": "88.3698",
  "country": "India",
  "iso2": "IN",
  "state": "West Bengal"
},
{
  "_id": {
    "$oid": "65cb4e4f638071de28652075"
  },
  "city": "Tribeni",
  "lat": "23.0269",
  "lng": "88.4565",
  "country": "India",
  "iso2": "IN",
  "state": "West Bengal"
},
{
  "_id": {
    "$oid": "65cb4e4f638071de28652076"
  },
  "city": "Huttanhalli",
  "lat": "13.1651",
  "lng": "77.6512",
  "country": "India",
  "iso2": "IN",
  "state": "Karnataka"
},
{
  "_id": {
    "$oid": "65cb4e4f638071de28652077"
  },
  "city": "Nathupur",
  "lat": "25.5163",
  "lng": "85.2544",
  "country": "India",
  "iso2": "IN",
  "state": "Bihar"
},
{
  "_id": {
    "$oid": "65cb4e4f638071de28652078"
  },
  "city": "Bali",
  "lat": "25.4810",
  "lng": "85.2227",
  "country": "India",
  "iso2": "IN",
  "state": "Bihar"
},
{
  "_id": {
    "$oid": "65cb4e4f638071de28652079"
  },
  "city": "Vajarhalli",
  "lat": "13.1022",
  "lng": "77.4111",
  "country": "India",
  "iso2": "IN",
  "state": "Karnataka"
},
{
  "_id": {
    "$oid": "65cb4e4f638071de2865207a"
  },
  "city": "Saino",
  "lat": "25.1134",
  "lng": "87.0108",
  "country": "India",
  "iso2": "IN",
  "state": "Bihar"
},
{
  "_id": {
    "$oid": "65cb4e4f638071de2865207b"
  },
  "city": "Shekhpura",
  "lat": "25.5725",
  "lng": "85.1428",
  "country": "India",
  "iso2": "IN",
  "state": "Bihar"
},
{
  "_id": {
    "$oid": "65cb4e4f638071de2865207c"
  },
  "city": "Cachohalli",
  "lat": "13.0010",
  "lng": "77.4717",
  "country": "India",
  "iso2": "IN",
  "state": "Karnataka"
},
{
  "_id": {
    "$oid": "65cb4e4f638071de2865207d"
  },
  "city": "Narayanpur Kola",
  "lat": "25.1293",
  "lng": "87.0076",
  "country": "India",
  "iso2": "IN",
  "state": "Bihar"
},
{
  "_id": {
    "$oid": "65cb4e4f638071de2865207e"
  },
  "city": "Gyan Chak",
  "lat": "25.5496",
  "lng": "85.2423",
  "country": "India",
  "iso2": "IN",
  "state": "Bihar"
},
{
  "_id": {
    "$oid": "65cb4e4f638071de2865207f"
  },
  "city": "Kasgatpur",
  "lat": "13.1101",
  "lng": "77.5045",
  "country": "India",
  "iso2": "IN",
  "state": "Karnataka"
},
{
  "_id": {
    "$oid": "65cb4e4f638071de28652080"
  },
  "city": "Kitanelli",
  "lat": "13.0095",
  "lng": "77.4191",
  "country": "India",
  "iso2": "IN",
  "state": "Karnataka"
},
{
  "_id": {
    "$oid": "65cb4e4f638071de28652081"
  },
  "city": "Harchandi",
  "lat": "25.1000",
  "lng": "87.0442",
  "country": "India",
  "iso2": "IN",
  "state": "Bihar"
},
{
  "_id": {
    "$oid": "65cb4e4f638071de28652082"
  },
  "city": "Santoshpur",
  "lat": "22.4650",
  "lng": "88.2193",
  "country": "India",
  "iso2": "IN",
  "state": "West Bengal"
},
{
  "_id": {
    "$oid": "65cb4e4f638071de28652083"
  },
  "city": "Bendravadi",
  "lat": "12.3636",
  "lng": "76.9137",
  "country": "India",
  "iso2": "IN",
  "state": "Karnataka"
},
{
  "_id": {
    "$oid": "65cb4e4f638071de28652084"
  },
  "city": "Kodagihalli",
  "lat": "12.9771",
  "lng": "77.4651",
  "country": "India",
  "iso2": "IN",
  "state": "Karnataka"
},
{
  "_id": {
    "$oid": "65cb4e4f638071de28652085"
  },
  "city": "Harna Buzurg",
  "lat": "25.0981",
  "lng": "87.0148",
  "country": "India",
  "iso2": "IN",
  "state": "Bihar"
},
{
  "_id": {
    "$oid": "65cb4e4f638071de28652086"
  },
  "city": "Mailanhalli",
  "lat": "13.1863",
  "lng": "77.6963",
  "country": "India",
  "iso2": "IN",
  "state": "Karnataka"
},
{
  "_id": {
    "$oid": "65cb4e4f638071de28652087"
  },
  "city": "Sultanpur",
  "lat": "25.5248",
  "lng": "85.2507",
  "country": "India",
  "iso2": "IN",
  "state": "Bihar"
}]